,City,Cloudiness,Country,Date,Humidity,Lat,Lng,Max Temp,Wind Speed
0,padang,100,ID,1573941615,89,-0.92,100.36,64.69,4.0
1,bonnyville,90,CA,1573941615,92,54.27,-110.74,33.8,8.05
2,karratha,0,AU,1573941615,57,-20.74,116.85,82.22,10.51
3,kotido,81,UG,1573941615,44,3.01,34.12,76.33,8.39
4,hanyang,50,CN,1573941615,80,32.14,105.51,57.0,3.4
5,bonavista,79,CA,1573941615,59,48.65,-53.11,28.0,23.0
6,busselton,0,AU,1573941616,62,-33.64,115.35,60.01,4.03
7,kavieng,100,PG,1573941616,69,-2.57,150.8,84.33,5.01
8,jamestown,45,AU,1573941616,80,-33.21,138.6,46.0,7.47
9,rawson,100,AR,1573941616,33,-43.3,-65.11,68.94,14.5
10,saint-philippe,0,CA,1573941616,48,45.36,-73.48,21.99,3.36
11,tezu,40,IN,1573941617,64,27.93,96.16,66.2,2.1
12,caravelas,100,BR,1573941406,81,-17.73,-39.27,77.13,8.48
13,zhigansk,100,RU,1573941617,99,66.77,123.37,-7.53,6.67
14,takab,0,IR,1573941617,64,36.4,47.11,23.85,6.42
15,sibolga,100,ID,1573941618,97,1.74,98.78,69.66,2.75
16,tasiilaq,89,GL,1573941618,68,65.61,-37.64,26.6,6.93
17,rikitea,95,PF,1573941618,84,-23.12,-134.97,74.28,15.75
18,cabo san lucas,75,ES,1573941618,70,43.18,-5.8,53.01,11.41
19,dikson,0,RU,1573941618,88,73.51,80.55,-12.1,8.23
20,victoria,75,BN,1573941618,88,5.28,115.24,78.8,1.12
21,luanda,20,AO,1573941606,83,-8.83,13.24,78.8,8.05
22,san cristobal,18,ML,1573941619,19,13.3,-4.9,84.18,8.23
23,oranjemund,100,ZA,1573941619,82,-28.55,16.43,61.56,18.9
24,qaanaaq,100,GL,1573941619,90,77.48,-69.36,9.01,4.94
25,taltal,6,CL,1573941619,72,-25.41,-70.49,62.91,6.4
26,hermanus,52,ZA,1573941315,93,-34.42,19.24,59.0,15.17
27,kars,0,TR,1573941531,79,40.61,43.1,26.6,3.11
28,mys shmidta,100,RU,1573941620,93,62.06,48.62,27.34,3.89
29,lavrentiya,0,RU,1573941620,76,65.58,-170.99,24.37,17.9
30,cidreira,0,BR,1573941620,63,-30.17,-50.22,69.37,9.24
31,castro,90,CL,1573941620,87,-42.48,-73.76,53.6,16.11
32,meghri,59,AM,1573941621,81,38.9,46.25,32.81,0.07
33,alofi,46,NU,1573941478,65,-19.06,-169.92,80.6,8.05
34,saltabarranca,100,MX,1573941621,81,18.59,-95.53,72.0,10.0
35,new norfolk,99,LR,1573941621,93,6.65,-10.59,75.92,2.8
36,hobart,75,AU,1573941604,43,-42.88,147.33,51.01,3.36
37,kapaa,90,US,1573941622,94,22.08,-159.32,86.0,11.41
38,akureyri,40,IS,1573941622,64,65.68,-18.09,35.6,23.04
39,punta arenas,20,PH,1573941622,94,14.18,121.12,78.8,1.12
40,vaini,19,IN,1573941622,88,15.34,74.49,68.09,5.64
41,mahebourg,75,MU,1573941622,83,-20.41,57.7,75.99,12.75
42,airai,32,TL,1573941623,23,-8.93,125.41,69.35,4.63
43,waipawa,100,NZ,1573941623,58,-39.94,176.59,71.01,8.99
44,ribeira grande,75,PT,1573941623,93,41.76,-8.56,55.99,9.17
45,old road,90,GB,1573941624,93,52.35,-0.85,46.0,3.36
46,east london,9,UG,1573941624,73,3.43,31.7,71.47,1.52
47,dolores,100,UY,1573941624,56,-33.53,-58.22,78.01,1.99
48,carnarvon,0,ZA,1573941625,47,-30.97,22.13,67.28,17.22
49,esperance,0,AU,1573941625,63,-33.86,121.89,64.4,19.46
50,vila franca do campo,75,IT,1573941625,100,45.18,8.4,46.99,5.82
51,bambous virieux,75,MU,1573941625,83,-20.26,57.41,75.99,12.75
52,uyskoye,66,RU,1573941625,69,54.37,60.01,30.25,7.09
53,atuona,1,PF,1573941626,73,-9.8,-139.03,79.72,15.26
54,mataura,33,NZ,1573941626,58,-46.19,168.86,57.0,15.01
55,clyde river,51,NZ,1573941574,46,-45.19,169.32,57.0,7.0
56,avera,90,US,1573941626,100,33.19,-82.53,57.0,8.05
57,ilulissat,75,GL,1573941626,53,69.22,-51.1,21.2,26.4
58,tuktoyaktuk,75,CA,1573941626,76,69.44,-133.03,-5.8,10.29
59,north bend,100,NG,1573941627,88,4.97,7.66,77.49,6.51
60,bluff,0,AU,1573941627,60,-23.58,149.07,76.33,10.29
61,moindou,2,NC,1573941627,47,-21.69,165.68,78.8,8.05
62,port-gentil,75,GA,1573941627,94,-0.72,8.78,77.0,3.36
63,hovd,75,NO,1573941627,90,63.83,10.7,39.99,17.22
64,sorland,100,NO,1573941628,68,67.67,12.69,41.43,10.33
65,nosy varika,100,PL,1573941628,93,51.99,20.8,54.0,5.82
66,westport,1,US,1573941482,21,41.14,-73.36,39.99,10.29
67,houston,1,US,1573941212,24,29.76,-95.37,64.99,2.08
68,zheleznodorozhnyy,90,RU,1573941629,93,55.75,38.0,39.2,4.47
69,shingu,15,JP,1573941629,72,33.72,135.99,58.39,6.62
70,molokovo,100,RU,1573941629,95,58.16,36.77,36.66,7.43
71,pitimbu,20,BR,1573941629,74,-7.47,-34.81,80.6,5.82
72,guerrero negro,75,AR,1573941629,37,-24.19,-65.45,86.0,5.82
73,pevek,76,RU,1573941629,80,69.7,170.27,3.69,2.04
74,lagos,20,NG,1573941630,88,6.46,3.39,82.4,6.93
75,salalah,40,OM,1573941630,57,17.01,54.1,78.8,6.93
76,thompson,90,CA,1573941337,78,55.74,-97.86,17.6,5.82
77,hilo,90,US,1573941630,69,19.71,-155.08,82.4,10.29
78,port-cartier,20,CA,1573941631,53,50.03,-66.88,25.0,14.99
79,port elizabeth,57,CD,1573941631,67,-7.04,29.76,79.97,9.22
80,nouadhibou,19,MR,1573941631,78,20.93,-17.03,71.6,10.29
81,tura,63,RU,1573941561,95,64.27,100.22,-29.63,2.82
82,albany,20,US,1573941517,30,42.65,-73.75,30.0,6.93
83,puerto ayora,40,AR,1573941632,39,-51.62,-69.23,62.6,24.16
84,necochea,0,AR,1573941632,80,-38.55,-58.74,63.0,1.99
85,vabalninkas,100,LT,1573941632,92,55.98,24.75,45.91,13.24
86,mehamn,0,NO,1573941632,87,71.03,27.85,24.13,9.57
87,biskamzha,100,RU,1573941633,86,53.45,89.53,-6.5,1.05
88,yulara,0,AU,1573941602,19,-25.24,130.99,71.6,6.93
89,lorengau,100,PG,1573941633,76,-2.02,147.27,83.46,9.17
90,sudak,0,UA,1573941633,79,44.85,34.97,43.7,4.16
91,georgetown,40,GY,1573941572,70,6.8,-58.16,86.0,11.41
92,aklavik,20,CA,1573941633,76,68.22,-135.01,-9.4,6.93
93,lebu,40,ET,1573941634,54,8.96,38.73,59.0,4.7
94,chignahuapan,79,MX,1573941634,84,19.84,-98.03,54.68,5.1
95,tateyama,40,JP,1573941634,87,36.66,137.31,48.99,2.24
96,bredasdorp,78,ZA,1573941634,72,-34.53,20.04,60.8,2.24
97,kaitangata,67,NZ,1573941634,55,-46.28,169.85,60.01,5.01
98,cherskiy,74,RU,1573941635,100,68.75,161.3,-7.46,2.44
99,brae,85,GB,1573941635,75,60.4,-1.35,33.8,1.12
100,jaguarao,34,BR,1573941635,66,-32.57,-53.38,76.5,3.44
101,yellowknife,90,CA,1573941609,77,62.45,-114.38,5.0,3.36
102,iqaluit,90,CA,1573941635,72,63.75,-68.52,17.6,12.75
103,dickinson,90,US,1573941636,75,46.88,-102.79,45.0,20.8
104,lucea,40,JM,1573941636,74,18.44,-78.17,86.0,11.41
105,minsk,90,BY,1573941636,100,53.9,27.56,48.2,6.71
106,faanui,0,PF,1573941636,81,-16.48,-151.75,80.02,14.54
107,ushuaia,40,AR,1573941517,54,-54.81,-68.31,55.4,12.75
108,marsa matruh,90,FR,1573941636,87,42.82,2.16,45.0,3.36
109,broome,100,GB,1573941637,93,52.47,1.45,43.0,6.93
110,santa cruz,52,PH,1573941637,85,17.49,120.43,71.8,3.09
111,kemin,8,KG,1573941637,40,42.79,75.7,27.9,2.71
112,coahuayana,77,MX,1573941637,58,18.62,-100.35,84.94,2.15
113,sitka,2,US,1573941637,27,37.17,-99.65,71.01,5.01
114,cape town,20,CL,1573941637,41,-36.41,-71.9,75.2,10.29
115,flin flon,0,FR,1573941638,92,48.5,6.66,41.0,3.36
116,hermosillo,5,MX,1573941523,25,29.09,-110.96,90.0,7.0
117,valparaiso,1,US,1573941492,69,41.47,-87.06,41.0,5.82
118,grand gaube,0,FR,1573941638,93,48.39,5.49,32.0,2.24
119,provideniya,100,RU,1573941638,92,64.42,-173.23,18.7,12.97
120,margate,75,AU,1573941639,43,-43.03,147.26,51.01,3.36
121,haines junction,1,US,1573941639,53,44.91,-117.94,55.4,4.7
122,berlevag,25,NO,1573941639,73,70.86,29.09,33.71,11.18
123,kirkland lake,90,US,1573941340,87,47.69,-122.19,53.6,9.17
124,merritt island,75,CA,1573941640,76,50.11,-120.79,50.0,10.29
125,butaritari,100,KI,1573941640,85,3.07,172.79,80.13,18.39
126,torbay,40,CA,1573941640,63,47.66,-52.73,30.0,27.51
127,arraial do cabo,20,BR,1573941640,50,-22.84,-46.65,77.0,11.41
128,cayenne,0,GF,1573941640,78,4.94,-52.33,82.4,5.82
129,norman wells,25,US,1573941640,29,35.22,-97.44,63.0,19.46
130,canutama,100,BR,1573941641,94,-6.53,-64.38,75.99,0.25
131,ponta do sol,59,BR,1573941641,83,-0.53,-65.05,84.15,1.03
132,chernushka,100,RU,1573941641,92,56.5,56.08,30.79,13.49
133,neuquen,34,AR,1573941641,10,-38.95,-68.06,91.4,11.41
134,barrow,0,AR,1573941641,43,-38.31,-60.23,73.29,11.12
135,resavica,100,RS,1573941641,82,44.04,21.58,50.22,7.16
136,canton,1,US,1573941602,50,40.8,-81.38,41.0,8.05
137,port alfred,57,CD,1573941642,67,-7.04,29.76,79.97,9.22
138,kayerkan,41,RU,1573941642,77,69.35,87.76,-2.2,6.71
139,vostok,96,RU,1573941642,96,46.45,135.83,-1.86,4.34
140,adrar,0,DZ,1573941643,33,27.87,-0.29,57.2,19.46
141,vao,100,EE,1573941643,96,59.1,26.19,36.7,8.55
142,nome,1,US,1573941643,42,30.04,-94.42,64.99,5.82
143,mitsamiouli,92,KM,1573941643,85,-11.38,43.28,80.35,5.68
144,isiro,96,CD,1573941644,90,2.77,27.62,70.72,1.54
145,seoul,75,KR,1573941483,38,37.57,126.98,44.6,3.36
146,chokurdakh,100,RU,1573941644,97,70.62,147.9,-1.57,4.72
147,kahului,1,US,1573941644,48,20.89,-156.47,87.8,11.41
148,verkhnevilyuysk,100,RU,1573941644,96,63.45,120.31,-8.09,6.38
149,vestmanna,99,FO,1573941645,80,62.16,-7.17,39.2,16.11
150,severo-kurilsk,55,RU,1573941645,80,50.68,156.12,19.27,4.72
151,tiksi,100,RU,1573941645,97,71.64,128.87,-2.69,4.12
152,souillac,1,FR,1573941645,100,45.6,-0.6,45.0,3.36
153,kabo,59,CF,1573941645,37,7.69,18.62,75.99,1.05
154,hasaki,20,JP,1573941645,93,35.73,140.83,44.6,10.29
155,pangnirtung,11,CA,1573941646,72,66.15,-65.72,7.39,2.98
156,constitucion,75,MX,1573941646,37,23.99,-104.67,69.8,4.7
157,irara,19,TL,1573941646,74,-8.52,127.01,68.92,1.45
158,kirakira,94,SB,1573941646,84,-10.46,161.92,79.25,5.86
159,kaminoyama,20,JP,1573941646,66,38.13,140.3,48.2,14.99
160,paka,100,CF,1573941647,72,4.15,15.03,72.63,1.59
161,notre-dame-du-lac,1,CA,1573941647,57,47.61,-68.8,21.0,14.99
162,harper,1,US,1573941648,31,30.3,-99.24,62.6,8.05
163,yantal,18,RU,1573941648,97,56.85,105.25,-17.34,2.93
164,jalu,100,LY,1573941648,43,29.03,21.55,63.77,9.86
165,talnakh,0,RU,1573941648,77,69.49,88.39,-2.2,6.71
166,luderitz,17,NA,1573941648,72,-26.65,15.16,66.2,23.04
167,taunggyi,0,MM,1573941649,96,20.78,97.03,59.4,2.28
168,wanning,75,AT,1573941649,100,48.64,13.53,43.0,3.36
169,acapulco,75,MX,1573941649,70,16.86,-99.88,86.0,6.93
170,ternate,20,PH,1573941649,94,14.29,120.72,78.8,1.12
171,vila,75,IT,1573941649,100,45.18,8.4,46.99,5.82
172,chuy,94,UY,1573941649,76,-33.69,-53.46,73.76,5.97
173,narsaq,100,GL,1573941650,20,60.91,-46.05,33.8,13.87
174,burgos,92,ES,1573941650,86,42.34,-3.7,34.0,3.36
175,mar del plata,16,CN,1573941650,41,29.86,90.73,23.4,3.87
176,pisco,23,PE,1573941650,30,-13.71,-76.2,71.6,12.75
177,takoradi,79,GH,1573941650,81,4.89,-1.75,81.93,6.98
178,bethel,75,US,1573941643,71,60.79,-161.76,10.4,20.8
179,pinega,100,RU,1573941651,91,64.7,43.39,28.99,3.83
180,sulangan,100,PH,1573941651,73,11.14,123.72,80.82,4.94
181,saskylakh,100,RU,1573941651,97,71.97,114.09,-8.12,4.61
182,kodiak,1,US,1573941651,32,39.95,-94.76,59.0,16.11
183,bay roberts,20,PH,1573941652,94,14.18,121.28,78.8,1.12
184,nikolskoye,90,RU,1573941652,93,59.7,30.79,37.4,8.95
185,jacareacanga,100,BR,1573941652,71,-6.22,-57.76,81.72,4.56
186,jawhar,70,IN,1573941652,72,19.91,73.23,76.5,4.43
187,beringovskiy,100,RU,1573941652,75,63.05,179.32,29.53,16.87
188,longfeng,0,CN,1573941652,100,31.05,103.87,59.0,3.24
189,sobolevo,100,RU,1573941653,92,54.43,31.9,42.22,8.41
190,tvoroyri,100,FO,1573941653,80,61.56,-6.81,39.2,16.11
191,hambantota,100,LK,1573941653,100,6.12,81.12,73.4,2.24
192,saldanha,84,PT,1573941653,86,41.42,-6.55,39.18,5.84
193,ushtobe,0,KZ,1573941653,37,45.25,77.98,24.17,3.58
194,grand baie,0,FR,1573941654,93,48.39,5.49,32.0,2.24
195,rio brilhante,1,US,1573941654,60,41.11,-90.4,45.0,12.75
196,ola,100,RU,1573941654,70,59.58,151.3,10.35,14.05
197,vanimo,100,PG,1573941654,78,-2.67,141.3,84.22,19.22
198,nicoya,40,CR,1573941654,66,10.15,-85.45,87.8,10.29
199,clinton,1,US,1573941654,22,41.28,-72.53,37.99,3.36
200,tual,96,ID,1573941655,81,-5.67,132.75,80.64,3.94
201,mpanda,58,BI,1573941655,90,-3.17,29.4,59.49,3.13
202,leningradskiy,57,RU,1573941655,78,69.38,178.42,15.01,4.34
203,tazovskiy,95,RU,1573941656,92,67.47,78.7,-16.65,17.85
204,avarua,0,CK,1573941656,69,-21.21,-159.78,80.6,12.75
205,bella union,5,IT,1573941656,61,40.76,15.54,66.0,10.29
206,leshukonskoye,88,RU,1573941656,95,64.9,45.76,25.97,4.92
207,emerald,0,AU,1573941656,61,-23.53,148.16,80.01,14.99
208,manoharpur,0,IN,1573941656,71,22.35,85.21,61.41,1.1
209,lerwick,100,GB,1573941657,68,60.15,-1.15,33.8,2.42
210,sola,71,TZ,1573941657,76,-3.17,33.8,70.11,5.41
211,yoichi,75,JP,1573941657,92,43.19,140.77,26.6,13.87
212,khatanga,56,RU,1573941658,90,71.98,102.47,-12.12,2.55
213,cooma,40,AU,1573941658,70,-36.24,149.13,48.2,13.87
214,ixtapa,90,MX,1573941658,66,20.71,-105.21,84.2,6.93
215,kelso,100,GB,1573941364,93,55.6,-2.43,46.0,6.93
216,saint-augustin,20,CA,1573941658,52,45.63,-73.98,21.99,5.82
217,eyl,33,SO,1573941658,80,7.98,49.82,79.65,22.57
218,egvekinot,60,RU,1573941659,95,66.32,-179.17,5.83,10.54
219,iskilip,0,TR,1573941659,55,40.73,34.47,52.56,3.44
220,tiarei,20,PF,1573941659,66,-17.53,-149.33,86.0,6.93
221,cagliari,90,IT,1573941659,92,46.38,10.88,39.2,4.7
222,sao jose da coroa grande,71,IN,1573941659,69,20.51,76.21,69.58,3.33
223,katsuura,20,JP,1573941660,93,33.93,134.5,50.0,10.29
224,nemuro,93,JP,1573941660,62,43.32,145.57,31.6,23.78
225,talaya,75,RU,1573941660,77,55.79,84.89,3.99,20.13
226,japura,4,ID,1573941660,98,-0.42,102.29,72.12,2.01
227,husavik,82,CA,1573941660,80,50.56,-96.99,39.99,5.01
228,savonlinna,90,FI,1573941661,100,61.87,28.88,30.2,6.93
229,teya,75,MX,1573941661,50,21.05,-89.07,77.0,11.41
230,chicama,75,PE,1573941661,82,-7.84,-79.15,66.2,9.17
231,aras,20,ES,1573941661,80,42.56,-2.36,41.0,10.29
232,rangia,40,IN,1573941661,94,26.44,91.62,73.4,3.38
233,alice springs,26,ZA,1573941662,95,-32.79,26.83,57.36,3.04
234,oga,100,IT,1573941662,100,46.46,10.35,34.0,1.12
235,omsukchan,100,RU,1573941662,100,62.53,155.8,-14.66,5.41
236,veselynove,0,UA,1573941662,79,47.36,31.24,45.3,6.85
237,boyolangu,49,ID,1573941662,92,-8.09,111.9,73.9,5.64
238,kavaratti,100,IN,1573941663,75,10.57,72.64,82.45,7.96
239,kondagaon,0,IN,1573941663,86,19.59,81.66,60.94,0.51
240,preobrazheniye,0,RU,1573941663,44,42.9,133.91,17.6,9.42
241,santa ana,52,PH,1573941663,85,17.49,120.43,71.8,3.09
242,port hedland,57,CD,1573941642,67,-7.04,29.76,79.97,9.22
243,carmen,40,PH,1573941664,83,7.36,125.71,75.2,2.24
244,prince rupert,90,CA,1573941664,98,52.97,-108.38,34.0,10.29
245,udachnyy,90,RU,1573941664,83,66.42,112.4,-5.8,2.24
246,hervey bay,1,US,1573941664,26,33.5,-93.78,57.2,4.7
247,ostrovnoy,95,RU,1573941665,95,68.05,39.51,22.55,6.89
248,bulgan,100,MN,1573941665,94,48.81,103.53,-9.62,7.81
249,upernavik,100,GL,1573941665,62,72.79,-56.15,19.51,10.71
250,tefe,40,BR,1573941609,94,-3.35,-64.71,78.8,5.82
251,floro,7,NO,1573941665,74,61.6,5.03,33.8,5.82
252,praia da vitoria,40,BR,1573941665,73,-20.25,-43.81,75.2,6.93
253,deori,0,IN,1573941666,55,23.12,78.69,65.55,2.64
254,fort-shevchenko,0,KZ,1573941666,77,44.51,50.26,37.22,10.49
255,launceston,0,AU,1573941666,57,-41.43,147.14,54.0,8.05
256,riachao do jacuipe,0,BR,1573941667,48,-7.36,-46.62,85.89,2.28
257,cerano,75,IT,1573941667,100,45.41,8.78,48.2,5.82
258,angren,100,UZ,1573941667,66,41.01,70.08,36.7,0.31
259,saint-denis,90,FR,1573941667,87,48.94,2.36,43.0,4.7
260,chapais,1,CA,1573941667,60,49.78,-74.86,8.6,4.7
261,ketchikan,90,US,1573941668,93,55.34,-131.65,51.8,17.22
262,birao,44,CF,1573941668,32,10.3,22.78,77.14,5.61
263,nipawin,90,CA,1573941668,86,53.36,-104.02,28.4,12.75
264,buchanan,96,LR,1573941668,88,5.88,-10.05,77.76,2.84
265,fortuna,1,US,1573941669,82,40.6,-124.16,64.99,5.82
266,abapo,94,BO,1573941669,16,-18.83,-63.47,94.57,8.59
267,kikwit,100,CD,1573941669,99,-5.04,18.82,67.53,2.55
268,pulaski,1,US,1573941669,60,37.05,-80.78,48.99,8.05
269,san quintin,18,ML,1573941609,19,13.3,-4.9,84.18,8.23
270,borogontsy,92,RU,1573941670,98,62.67,131.17,-19.62,4.85
271,san vicente,18,ML,1573941602,19,13.3,-4.9,84.18,8.23
272,puerto ayacucho,40,AR,1573941632,39,-51.62,-69.23,62.6,24.16
273,linxia,100,CN,1573941670,40,35.6,103.21,27.34,2.89
274,tocopilla,69,CL,1573941670,17,-22.09,-70.2,68.27,9.17
275,northam,90,AU,1573941671,93,-31.65,116.67,66.2,8.05
276,nortelandia,100,BR,1573941551,83,-14.45,-56.8,81.54,2.26
277,vikhorevka,64,RU,1573941671,75,56.12,101.17,-13.0,2.24
278,antofagasta,75,CL,1573941671,68,-23.65,-70.4,66.2,11.41
279,geraldton,90,CA,1573941671,85,49.72,-86.95,32.0,16.11
280,beira,75,ES,1573941671,87,43.2,-8.36,53.01,4.7
281,olinda,75,AU,1573941672,66,-37.84,145.39,57.0,11.41
282,san matias,18,ML,1573941609,19,13.3,-4.9,84.18,8.23
283,nhulunbuy,15,AU,1573941672,83,-12.18,136.78,80.6,11.9
284,klaksvik,100,FO,1573941672,80,62.23,-6.59,39.2,16.11
285,fershampenuaz,0,RU,1573941672,71,53.52,59.82,28.06,10.2
286,araruama,0,BR,1573941596,83,-22.87,-42.34,71.6,11.41
287,belmonte,4,PT,1573941673,98,40.36,-7.35,44.01,5.48
288,negotino,97,MK,1573941673,93,41.48,22.09,51.01,2.24
289,miandrivazo,39,MG,1573941674,77,-19.53,45.46,77.43,5.68
290,zhangjiakou,100,CN,1573941674,95,40.77,114.88,29.08,5.01
291,weyburn,100,CA,1573941674,88,49.67,-103.85,35.01,21.99
292,ibra,100,OM,1573941674,38,22.69,58.55,69.15,6.64
293,gizo,0,IL,1573941675,68,31.8,34.94,66.2,4.7
294,chara,40,GR,1573941675,100,39.42,22.43,53.6,1.59
295,paamiut,100,GL,1573941675,46,61.99,-49.67,25.92,14.12
296,buckeye,75,US,1573941462,19,33.37,-112.58,82.4,4.7
297,mount isa,75,GB,1573941676,93,53.66,-1.85,46.99,8.05
298,kruisfontein,100,ZA,1573941676,96,-34.0,24.73,60.67,7.94
299,jaisalmer,0,IN,1573941676,65,26.91,70.91,70.79,8.19
300,zemio,95,CF,1573941676,77,5.02,25.13,74.1,2.33
301,hanzhong,68,CN,1573941677,70,33.08,107.03,54.09,1.97
302,salinas,1,US,1573941677,49,36.67,-121.66,75.99,5.55
303,wamba,100,CD,1573941677,98,2.14,27.99,68.4,3.13
304,iquique,100,CL,1573941678,56,-20.22,-70.14,69.8,12.75
305,ulaanbaatar,75,MN,1573941678,70,47.92,106.92,-4.0,17.9
306,namibe,91,AO,1573941678,78,-15.19,12.15,70.92,15.03
307,bayan,100,CN,1573941678,43,36.1,102.26,25.3,7.02
308,zyryanka,100,RU,1573941678,95,65.73,150.89,-2.13,13.47
309,alyangula,100,AU,1573941679,94,-13.85,136.42,71.6,4.7
310,hithadhoo,100,MV,1573941635,75,-0.6,73.08,81.48,11.1
311,quepos,75,CR,1573941679,100,9.43,-84.16,77.0,11.41
312,fort saint james,0,IN,1573941679,79,17.96,79.61,69.73,4.83
313,santander,40,PH,1573941679,78,9.42,123.33,77.0,4.47
314,lagoa,0,PT,1573941680,71,37.14,-8.45,52.0,5.82
315,shimorskoye,67,RU,1573941680,86,55.33,42.04,33.01,9.98
316,moron,13,HT,1573941680,69,18.56,-74.26,81.84,4.94
317,port hardy,57,CD,1573941680,67,-7.04,29.76,79.97,9.22
318,pacific grove,90,US,1573941680,71,47.26,-122.25,54.0,5.82
319,poyarkovo,0,RU,1573941681,90,49.62,128.65,1.11,4.16
320,talara,100,PE,1573941681,100,-4.58,-81.27,62.6,13.87
321,camacha,40,PT,1573941681,63,33.08,-16.33,64.4,10.29
322,labytnangi,100,RU,1573941681,93,66.66,66.39,6.03,17.58
323,yazman,0,SY,1573941681,40,36.74,38.46,59.56,6.24
324,codo,20,ES,1573941682,70,41.33,-0.7,45.0,9.17
325,sur,74,OM,1573941387,41,22.57,59.53,71.89,4.27
326,saint-leu,100,RE,1573941401,73,-21.15,55.28,75.2,5.82
327,sao filipe,71,IN,1573941682,69,20.51,76.21,69.58,3.33
328,kiama,90,AU,1573941682,88,-34.67,150.86,64.99,10.29
329,bergen,15,NO,1573941682,83,60.39,5.33,41.0,2.24
330,chateauroux,90,FR,1573941683,93,43.72,0.65,45.0,5.82
331,anchorage,90,US,1573941506,92,61.22,-149.89,34.0,3.36
332,khor,38,RU,1573941683,81,47.88,134.96,6.42,11.68
333,marsh harbour,75,GB,1573941683,93,53.65,-1.81,46.99,8.05
334,ancud,90,CL,1573941683,87,-41.87,-73.83,53.6,16.11
335,riyadh,37,SA,1573941606,55,24.63,46.72,60.8,4.7
336,cacoal,96,BR,1573941684,90,-11.43,-61.44,78.66,5.46
337,alaca,0,TR,1573941684,72,40.17,34.84,45.03,3.42
338,rocha,100,UY,1573941684,78,-34.48,-54.34,70.25,7.94
339,behbahan,84,IR,1573941684,62,30.59,50.24,53.6,4.43
340,dingle,100,PH,1573941685,88,11.0,122.67,72.99,1.63
341,kenora,90,CA,1573941671,69,49.76,-94.48,39.2,17.22
342,mahibadhoo,94,MV,1573941685,79,3.78,72.97,80.83,14.41
343,hami,0,CN,1573941686,24,42.84,93.51,14.81,1.07
344,nunoa,84,PE,1573941686,80,-14.48,-70.64,44.24,13.18
345,marawi,67,PH,1573941686,93,8.0,124.29,63.61,3.13
346,valdivia,75,CL,1573941686,67,-39.81,-73.25,60.8,13.87
347,vardo,1,US,1573941686,18,39.62,-77.74,42.01,10.29
348,pochutla,75,MX,1573941687,70,15.74,-96.47,86.0,11.41
349,brokopondo,40,SR,1573941687,88,5.06,-54.98,81.0,5.82
350,taos,1,US,1573941687,15,36.41,-105.57,61.0,17.22
351,comodoro rivadavia,100,BR,1573941687,94,-13.66,-59.79,76.73,2.39
352,lompoc,1,US,1573941600,28,34.64,-120.46,86.0,8.05
353,svetlaya,0,RU,1573941687,43,46.54,138.33,22.05,15.5
354,meulaboh,100,ID,1573941688,93,4.14,96.13,76.44,11.05
355,vestmannaeyjar,98,IS,1573941688,62,63.44,-20.27,40.98,15.64
356,sao joao da barra,71,IN,1573941659,69,20.51,76.21,69.58,3.33
357,port blair,57,CD,1573941642,67,-7.04,29.76,79.97,9.22
358,saint-paul,100,FR,1573941688,100,45.22,1.9,41.0,3.36
359,manaus,75,BR,1573941689,78,-3.13,-59.98,80.6,3.36
360,muravlenko,100,RU,1573941689,95,63.79,74.5,3.36,13.22
361,kautokeino,27,NO,1573941689,97,69.01,23.04,2.52,5.3
362,coihaique,90,CL,1573941689,76,-45.58,-72.07,50.0,5.82
363,nenjiang,33,CN,1573941689,80,49.17,125.23,4.17,2.44
364,sangar,100,RU,1573941690,99,63.92,127.47,-19.28,3.13
365,nenita,98,PH,1573941690,94,12.49,124.8,76.05,5.91
366,lingolsheim,20,FR,1573941690,85,48.56,7.68,37.4,2.24
367,kuminskiy,98,RU,1573941690,97,58.67,66.57,22.95,5.5
368,zamora,19,ES,1573941690,86,41.51,-5.74,37.0,6.93
369,marshall,1,US,1573941690,43,39.12,-93.2,55.99,10.29
370,guia de isora,40,PT,1573941691,93,39.95,-8.79,51.01,4.7
371,luchegorsk,27,RU,1573941691,72,46.44,134.3,10.45,8.34
372,amapa,75,HN,1573941691,74,15.09,-87.97,80.6,13.87
373,nangomba,66,TZ,1573941691,66,-10.9,38.52,80.1,10.71
374,yamada,40,JP,1573941691,87,36.58,137.08,48.99,2.24
375,iracoubo,20,GF,1573941692,79,5.48,-53.21,82.56,13.29
376,bandarbeyla,3,SO,1573941692,78,9.49,50.81,79.93,21.47
377,nanortalik,100,GL,1573941692,79,60.14,-45.24,31.91,28.23
378,luena,87,AO,1573941692,83,-11.78,19.91,66.02,4.05
379,orotukan,100,RU,1573941692,95,62.26,151.67,-9.06,4.54
380,lebrija,40,CO,1573941693,88,7.11,-73.22,87.8,10.29
381,ruston,1,US,1573941673,24,32.52,-92.64,59.0,5.06
382,sibu,75,MY,1573941693,94,2.29,111.83,75.2,2.04
383,vila velha,75,IT,1573941480,93,45.18,8.4,46.99,5.82
384,surt,100,LY,1573941694,33,31.21,16.59,67.48,15.68
385,venado tuerto,90,MX,1573941694,52,22.93,-101.09,63.18,5.17
386,puerto quijarro,40,AR,1573941632,39,-51.62,-69.23,62.6,24.16
387,sorong,61,ID,1573941694,99,-0.86,131.25,72.73,1.79
388,at-bashi,99,KG,1573941694,41,41.17,75.81,11.98,7.02
389,petauke,100,ZM,1573941695,87,-14.25,31.33,69.85,9.48
390,luwuk,34,ID,1573941695,71,-0.95,122.79,80.46,7.25
391,lalmohan,0,BD,1573941695,84,22.34,90.74,69.19,4.38
392,axim,65,GH,1573941695,89,4.87,-2.24,77.4,2.51
393,tahe,0,CN,1573941695,87,52.34,124.71,-3.37,4.27
394,dzhankoy,0,UA,1573941696,85,45.71,34.39,44.46,4.07
395,aksarka,99,RU,1573941696,94,66.56,67.8,5.2,10.92
396,codrington,90,AU,1573941696,68,-28.95,153.24,73.0,2.44
397,grindavik,40,IS,1573941696,62,63.84,-22.43,32.0,12.75
398,khani,0,GE,1573941696,50,41.96,42.96,51.8,27.51
399,svecha,100,RU,1573941697,94,58.28,47.52,32.11,5.73
400,paraje nuevo,1,US,1573941697,14,35.06,-107.48,66.2,16.11
401,oktyabrskiy,90,RU,1573941697,93,55.61,37.97,39.2,4.47
402,faya,96,SA,1573941697,66,18.39,42.45,57.2,2.95
403,mongo,100,CD,1573941697,90,-5.62,14.6,72.64,1.23
404,tacuarembo,17,UY,1573941697,68,-31.73,-55.98,76.71,5.12
405,lata,0,IN,1573941698,49,30.78,78.62,23.29,8.7
406,upata,97,VE,1573941698,76,8.02,-62.41,80.53,4.41
407,pangoa,100,PE,1573941699,47,-12.12,-73.0,84.15,2.42
408,marzuq,0,YE,1573941699,74,14.4,46.47,66.16,6.02
409,male,36,UA,1573941699,79,50.74,33.7,38.35,6.33
410,bridlington,100,GB,1573941699,100,54.08,-0.19,46.99,5.82
411,ust-maya,100,RU,1573941699,97,60.42,134.54,-16.49,3.56
412,ukiah,1,US,1573941699,43,39.15,-123.21,77.0,3.71
413,nagpur,6,IN,1573941700,77,21.15,79.08,68.0,3.36
414,xining,100,CN,1573941700,41,36.62,101.77,25.66,7.2
415,kamenka,73,MD,1573941700,85,48.03,28.7,54.0,10.78
416,havre-saint-pierre,1,CA,1573941621,62,50.23,-63.6,19.4,14.99
417,kununurra,77,AU,1573941630,88,-15.77,128.74,73.4,1.12
418,opole lubelskie,100,PL,1573941700,100,50.67,17.92,50.0,11.23
419,shitanjing,97,CN,1573941701,37,39.23,106.34,27.0,1.99
420,trapani,6,IT,1573941701,31,38.02,12.54,73.4,26.4
421,garowe,0,SO,1573941701,63,8.41,48.48,74.75,12.15
422,bang saphan,81,CM,1573941701,23,9.87,13.98,82.89,3.06
423,navalmoral de la mata,52,ES,1573941702,86,40.46,-4.77,43.0,1.01
424,okitipupa,100,NG,1573941702,93,6.5,4.78,76.41,2.19
425,ballina,100,IE,1573941702,93,54.11,-9.15,43.0,4.0
426,moyale,0,ET,1573941702,61,3.52,39.05,71.6,10.09
427,matamoros,1,US,1573941702,53,25.87,-97.51,72.0,8.05
428,bastrop,1,US,1573941703,26,32.78,-91.91,59.0,8.05
429,qasigiannguit,75,GL,1573941703,53,68.82,-51.19,21.2,26.4
430,lisakovsk,76,KZ,1573941703,73,52.55,62.49,27.34,7.45
431,yebaishou,100,CN,1573941704,67,41.4,119.64,27.48,3.44
432,grand river south east,0,FR,1573941704,93,48.39,5.49,32.0,2.24
433,barabai,77,ID,1573941704,78,-2.59,115.38,73.45,1.74
434,bintulu,75,MY,1573941485,100,3.17,113.03,75.2,2.24
435,magadi,40,IN,1573941704,100,12.96,77.22,68.0,4.7
436,krasnomayskiy,90,RU,1573941704,77,55.0,82.52,6.8,13.42
437,portland,1,US,1573940935,26,43.66,-70.25,30.2,8.05
438,jacqueville,20,CI,1573941705,83,5.21,-4.42,82.4,4.7
439,cockburn town,1,AU,1573941705,54,-32.08,141.0,53.6,17.22
440,davila,20,PH,1573941705,83,18.47,120.58,78.8,9.17
441,nogales,0,CL,1573941705,53,-32.73,-71.2,82.0,8.05
442,tucurui,42,BR,1573941677,55,-3.77,-49.67,87.71,3.2
443,shar,100,NG,1573941706,57,7.3,8.73,81.14,3.38
444,port macquarie,57,CD,1573941631,67,-7.04,29.76,79.97,9.22
445,santiago de cao,100,PH,1573941624,95,16.69,121.54,70.97,1.43
446,sechura,97,PE,1573941706,93,-5.56,-80.82,64.98,20.4
447,kango,100,GA,1573941707,97,0.19,10.1,74.3,1.74
448,jardim,0,BR,1573941707,24,-21.48,-56.15,88.5,3.58
449,nyaunglebin,0,MM,1573941708,94,17.95,96.73,72.9,2.89
450,salvador,20,BR,1573941708,83,-12.98,-38.48,80.6,18.34
451,ormara,100,PK,1573941709,56,25.21,64.64,77.49,7.25
452,aki,12,JP,1573941709,70,33.51,133.91,48.2,11.41
453,port hueneme,57,CD,1573941642,67,-7.04,29.76,79.97,9.22
454,ayagoz,100,KZ,1573941710,54,47.96,80.43,8.33,3.04
455,kindu,100,CD,1573941710,98,-2.95,25.92,69.48,2.3
456,sambava,78,MG,1573941710,97,-14.27,50.17,72.52,1.41
457,college,90,US,1573941679,84,64.86,-147.8,9.0,5.82
458,hamilton,40,CA,1573941413,73,43.26,-79.87,30.99,21.92
459,saint-felicien,20,CA,1573941711,56,48.65,-72.45,18.0,8.05
460,moose factory,40,US,1573941648,42,43.66,-110.72,46.4,12.75
461,murray bridge,1,US,1573941711,54,40.67,-111.89,57.2,13.87
462,goderich,87,CA,1573941666,75,43.74,-81.71,27.0,7.49
463,boguchany,100,RU,1573941712,91,58.38,97.46,-6.12,5.21
464,denton,1,US,1573941712,41,33.22,-97.13,64.4,9.17
465,tuatapere,2,NZ,1573941712,58,-46.13,167.69,57.0,15.01
466,nizwa,100,OM,1573941674,57,22.93,57.53,61.45,4.14
467,san joaquin,18,ML,1573941602,19,13.3,-4.9,84.18,8.23
468,wegrow,100,PL,1573941713,85,52.4,22.02,50.0,10.27
469,lodi,20,IT,1573941601,87,45.31,9.5,50.0,3.36
470,malpe,20,IN,1573941713,88,13.35,74.72,75.2,3.36
471,san jose,18,ML,1573941609,19,13.3,-4.9,84.18,8.23
472,fairbanks,90,US,1573941642,84,64.84,-147.72,9.0,5.82
473,atasu,0,KZ,1573941714,35,48.68,71.64,18.16,5.32
474,pangkalanbuun,51,ID,1573941714,96,-2.68,111.62,72.64,0.51
475,chipinge,7,ZW,1573941714,66,-20.19,32.62,69.98,6.8
476,sydney mines,75,AU,1573941616,82,-33.85,151.22,68.0,23.04
477,kurchum,100,KZ,1573941714,84,48.57,83.65,11.28,9.46
478,longyearbyen,75,NO,1573941715,98,78.22,15.63,32.0,9.17
479,parabel,100,RU,1573941715,92,58.71,81.5,13.41,10.56
480,maceio,1,BR,1573941624,78,-9.67,-35.74,78.8,13.87
481,lichuan,27,CN,1573941715,94,30.3,108.94,51.57,3.56
482,dawei,11,MM,1573941716,75,14.07,98.19,79.21,5.53
483,dakar,100,SN,1573941598,78,14.69,-17.45,77.0,5.82
484,seydi,0,NE,1573941716,18,13.34,7.75,84.16,8.37
485,benguela,83,AO,1573941716,80,-12.58,13.4,76.26,3.09
486,garden city,12,DE,1573941716,80,53.69,12.05,41.0,11.41
487,nyuksenitsa,100,RU,1573941717,98,60.41,44.24,31.6,2.93
488,polonne,100,UA,1573941717,93,50.12,27.51,48.69,7.99
489,tymovskoye,100,RU,1573941717,94,50.85,142.66,28.65,23.58
490,novikovo,0,RU,1573941717,88,51.15,37.89,34.38,8.19
491,issia,92,CI,1573941717,75,6.49,-6.58,76.59,1.81
492,ahipara,73,NZ,1573941717,89,-35.17,173.16,73.99,11.95
493,pasan,2,IN,1573941718,52,22.84,82.2,61.29,2.48
494,biak,34,ID,1573941718,71,-0.91,122.88,80.46,7.25
495,muros,75,ES,1573941718,100,42.77,-9.06,55.99,5.82
496,gorele,40,TR,1573941718,77,41.03,39.0,59.0,8.05
497,beian,14,NO,1573941718,86,63.66,9.57,39.99,13.87
498,colac,87,AU,1573941627,92,-38.34,143.59,54.0,3.33
499,morros,20,BR,1573941719,74,-2.87,-44.04,82.4,13.87
500,isangel,75,VU,1573941719,58,-19.55,169.27,82.4,13.87
501,laguna,40,BZ,1573941719,69,16.17,-88.94,82.4,2.53
502,benghazi,100,LY,1573941720,42,32.12,20.07,69.67,14.76
503,kjollefjord,11,NO,1573941720,84,70.95,27.35,24.51,8.57
504,reforma,75,MX,1573941720,37,24.02,-104.65,69.8,4.7
505,union,90,US,1573941720,50,34.72,-81.62,57.2,6.93
506,mount gambier,75,GB,1573941720,93,53.66,-1.85,46.99,8.05
507,fochville,0,ZA,1573941721,55,-26.49,27.49,66.0,4.88
508,kushima,40,JP,1573941721,87,31.5,131.29,46.4,11.41
509,altamirano,0,AR,1573941721,61,-35.36,-58.15,78.8,6.93
510,morris,1,US,1573941722,49,45.59,-95.91,48.2,11.03
511,warrington,75,GB,1573941722,100,53.39,-2.59,46.4,5.82
512,pimentel,9,BR,1573941722,71,-3.7,-45.5,82.13,4.09
513,charleston,90,US,1573941435,87,32.79,-79.94,46.99,16.11
514,bowen,75,AU,1573941722,88,-20.01,148.25,82.0,7.38
515,onega,100,RU,1573941723,89,63.91,38.09,28.96,3.4
516,bathsheba,40,BB,1573941723,88,13.22,-59.52,78.8,5.82
517,nago,40,IT,1573941723,93,45.88,10.89,50.0,6.93
518,nishihara,20,JP,1573941723,58,35.74,139.53,57.2,9.17
519,maningrida,52,AU,1573941723,89,-12.05,134.23,75.96,5.37
520,vallenar,0,CL,1573941724,58,-28.58,-70.76,66.27,12.03
521,lashio,0,MM,1573941724,97,22.93,97.75,54.73,0.98
522,shieli,0,KZ,1573941724,37,44.18,66.74,31.33,6.89
523,san antonio,18,ML,1573941602,19,13.3,-4.9,84.18,8.23
524,manadhoo,81,MV,1573941725,77,5.77,73.38,81.72,11.3
525,etah,0,IN,1573941725,53,27.56,78.66,68.32,7.14
526,russell,1,US,1573941609,30,38.9,-98.86,64.0,10.29
527,lasa,0,CY,1573941725,67,34.92,32.53,64.4,4.7
528,tarko-sale,88,RU,1573941725,81,64.92,77.78,-11.99,17.4
529,kloulklubed,75,PW,1573941725,94,7.04,134.26,77.0,3.36
530,shenjiamen,0,CN,1573941726,83,29.96,122.3,68.74,17.13
531,glendive,75,US,1573941726,70,47.11,-104.71,46.99,21.92
532,srednekolymsk,100,RU,1573941726,95,67.46,153.71,4.39,7.29
533,tevriz,100,RU,1573941726,95,57.51,72.4,26.47,7.43
534,sistranda,5,NO,1573941727,86,63.73,8.83,39.99,13.87
535,veraval,90,FR,1573941727,100,49.65,0.71,41.0,3.36
536,aykhal,90,RU,1573941727,83,65.95,111.51,-5.8,2.24
537,aripuana,100,BR,1573941727,66,-9.17,-60.63,83.07,3.04
538,samarai,100,PG,1573941727,92,-10.62,150.67,77.09,3.98
539,coronado,40,PA,1573941728,83,8.53,-79.9,82.99,6.93
